[
  {"address": "Clarendon Row",
    "banking": 0,
    "bike_stands": 31,
    "bonus": 0, "contract_name": "dublin", "name": "CLARENDON ROW", "number": 1, "position_lat": 53.3409, "position_lng": -6.2625, "status": "OPEN"},
  {"address": "Blessington Street", "banking": 0, "bike_stands": 20, "bonus": 0, "contract_name": "dublin", "name": "BLESSINGTON STREET", "number": 2, "position_lat": 53.3568, "position_lng": -6.26814, "status": "OPEN"}, {"address": "Bolton Street", "banking": 0, "bike_stands": 20, "bonus": 0, "contract_name": "dublin", "name": "BOLTON STREET", "number": 3, "position_lat": 53.3512, "position_lng": -6.26986, "status": "OPEN"}, {"address": "Greek Street", "banking": 0, "bike_stands": 20, "bonus": 0, "contract_name": "dublin", "name": "GREEK STREET", "number": 4, "position_lat": 53.3469, "position_lng": -6.27298, "status": "OPEN"}, {"address": "Charlemont Street", "banking": 0, "bike_stands": 40, "bonus": 0, "contract_name": "dublin", "name": "CHARLEMONT PLACE", "number": 5, "position_lat": 53.3307, "position_lng": -6.26018, "status": "OPEN"}, {"address": "Christchurch Place", "banking": 0, "bike_stands": 20, "bonus": 0, "contract_name": "dublin", "name": "CHRISTCHURCH PLACE", "number": 6, "position_lat": 53.3434, "position_lng": -6.27012, "status": "OPEN"}, {"address": "High Street", "banking": 0, "bike_stands": 29, "bonus": 0, "contract_name": "dublin", "name": "HIGH STREET", "number": 7, "position_lat": 53.3436, "position_lng": -6.27507, "status": "OPEN"}, {"address": "Custom House Quay", "banking": 0, "bike_stands": 30, "bonus": 0, "contract_name": "dublin", "name": "CUSTOM HOUSE QUAY", "number": 8, "position_lat": 53.3479, "position_lng": -6.24805, "status": "OPEN"}, {"address": "Exchequer Street", "banking": 0, "bike_stands": 24, "bonus": 0, "contract_name": "dublin", "name": "EXCHEQUER STREET", "number": 9, "position_lat": 53.343, "position_lng": -6.26358, "status": "OPEN"}, {"address": "Dame Street", "banking": 1, "bike_stands": 16, "bonus": 0, "contract_name": "dublin", "name": "DAME STREET", "number": 10, "position_lat": 53.344, "position_lng": -6.2668, "status": "OPEN"}, {"address": "Earlsfort Terrace", "banking": 0, "bike_stands": 30, "bonus": 0, "contract_name": "dublin", "name": "EARLSFORT TERRACE", "number": 11, "position_lat": 53.3343, "position_lng": -6.2585, "status": "OPEN"}, {"address": "Eccles Street", "banking": 0, "bike_stands": 20, "bonus": 0, "contract_name": "dublin", "name": "ECCLES STREET", "number": 12, "position_lat": 53.3592, "position_lng": -6.26978, "status": "OPEN"}, {"address": "Fitzwilliam Square West", "banking": 0, "bike_stands": 30, "bonus": 0, "contract_name": "dublin", "name": "FITZWILLIAM SQUARE WEST", "number": 13, "position_lat": 53.3361, "position_lng": -6.25282, "status": "OPEN"}, {"address": "Fownes Street Upper", "banking": 0, "bike_stands": 30, "bonus": 0, "contract_name": "dublin", "name": "FOWNES STREET UPPER", "number": 14, "position_lat": 53.3446, "position_lng": -6.26337, "status": "OPEN"}, {"address": "Hardwicke Street", "banking": 0, "bike_stands": 16, "bonus": 0, "contract_name": "dublin", "name": "HARDWICKE STREET", "number": 15, "position_lat": 53.3555, "position_lng": -6.26442, "status": "OPEN"}, {"address": "Georges Quay", "banking": 0, "bike_stands": 20, "bonus": 0, "contract_name": "dublin", "name": "GEORGES QUAY", "number": 16, "position_lat": 53.3475, "position_lng": -6.25219, "status": "OPEN"}, {"address": "Golden Lane", "banking": 0, "bike_stands": 20, "bonus": 0, "contract_name": "dublin", "name": "GOLDEN LANE", "number": 17, "position_lat": 53.3408, "position_lng": -6.26773, "status": "OPEN"}, {"address": "Grantham Street", "banking": 0, "bike_stands": 30, "bonus": 0, "contract_name": "dublin", "name": "GRANTHAM STREET", "number": 18, "position_lat": 53.3341, "position_lng": -6.26544, "status": "OPEN"}, {"address": "Herbert Place", "banking": 0, "bike_stands": 30, "bonus": 0, "contract_name": "dublin", "name": "HERBERT PLACE", "number": 19, "position_lat": 53.3344, "position_lng": -6.24557, "status": "OPEN"}, {"address": "James Street East", "banking": 0, "bike_stands": 30, "bonus": 0, "contract_name": "dublin", "name": "JAMES STREET EAST", "number": 20, "position_lat": 53.3366, "position_lng": -6.24811, "status": "OPEN"}, {"address": "Leinster Street South", "banking": 0, "bike_stands": 30, "bonus": 0, "contract_name": "dublin", "name": "LEINSTER STREET SOUTH", "number": 21, "position_lat": 53.3422, "position_lng": -6.25449, "status": "OPEN"}, {"address": "Townsend Street", "banking": 0, "bike_stands": 20, "bonus": 0, "contract_name": "dublin", "name": "TOWNSEND STREET", "number": 22, "position_lat": 53.3459, "position_lng": -6.25461, "status": "OPEN"}, {"address": "Custom House", "banking": 0, "bike_stands": 30, "bonus": 0, "contract_name": "dublin", "name": "CUSTOM HOUSE", "number": 23, "position_lat": 53.3483, "position_lng": -6.25466, "status": "OPEN"}, {"address": "Cathal Brugha Street", "banking": 0, "bike_stands": 20, "bonus": 0, "contract_name": "dublin", "name": "CATHAL BRUGHA STREET", "number": 24, "position_lat": 53.3521, "position_lng": -6.26053, "status": "OPEN"}, {"address": "Merrion Square East", "banking": 0, "bike_stands": 30, "bonus": 0, "contract_name": "dublin", "name": "MERRION SQUARE EAST", "number": 25, "position_lat": 53.3394, "position_lng": -6.24655, "status": "OPEN"}, {"address": "Merrion Square West", "banking": 1, "bike_stands": 20, "bonus": 0, "contract_name": "dublin", "name": "MERRION SQUARE WEST", "number": 26, "position_lat": 53.3398, "position_lng": -6.25199, "status": "OPEN"}, {"address": "Molesworth Street", "banking": 0, "bike_stands": 20, "bonus": 0, "contract_name": "dublin", "name": "MOLESWORTH STREET", "number": 27, "position_lat": 53.3413, "position_lng": -6.25812, "status": "OPEN"}, {"address": "Mountjoy Square West", "banking": 0, "bike_stands": 30, "bonus": 0, "contract_name": "dublin", "name": "MOUNTJOY SQUARE WEST", "number": 28, "position_lat": 53.3563, "position_lng": -6.25859, "status": "OPEN"}, {"address": "Ormond Quay Upper", "banking": 0, "bike_stands": 29, "bonus": 0, "contract_name": "dublin", "name": "ORMOND QUAY UPPER", "number": 29, "position_lat": 53.3461, "position_lng": -6.268, "status": "OPEN"}, {"address": "Parnell Square North", "banking": 0, "bike_stands": 20, "bonus": 0, "contract_name": "dublin", "name": "PARNELL SQUARE NORTH", "number": 30, "position_lat": 53.3537, "position_lng": -6.2653, "status": "OPEN"}, {"address": "Parnell Street", "banking": 0, "bike_stands": 20, "bonus": 0, "contract_name": "dublin", "name": "PARNELL STREET", "number": 31, "position_lat": 53.3509, "position_lng": -6.26512, "status": "OPEN"}, {"address": "Pearse Street", "banking": 0, "bike_stands": 30, "bonus": 0, "contract_name": "dublin", "name": "PEARSE STREET", "number": 32, "position_lat": 53.3443, "position_lng": -6.25043, "status": "OPEN"}, {"address": "Princes Street / O'Connell Street", "banking": 1, "bike_stands": 23, "bonus": 0, "contract_name": "dublin", "name": "PRINCES STREET / O'CONNELL STREET", "number": 33, "position_lat": 53.349, "position_lng": -6.26031, "status": "OPEN"}, {"address": "Portobello Harbour", "banking": 0, "bike_stands": 30, "bonus": 0, "contract_name": "dublin", "name": "PORTOBELLO HARBOUR", "number": 34, "position_lat": 53.3304, "position_lng": -6.26516, "status": "OPEN"}, {"address": "Smithfield", "banking": 0, "bike_stands": 30, "bonus": 0, "contract_name": "dublin", "name": "SMITHFIELD", "number": 35, "position_lat": 53.3477, "position_lng": -6.27821, "status": "OPEN"}, {"address": "St. Stephen's Green East", "banking": 0, "bike_stands": 40, "bonus": 0, "contract_name": "dublin", "name": "ST. STEPHEN'S GREEN EAST", "number": 36, "position_lat": 53.3378, "position_lng": -6.25603, "status": "OPEN"}, {"address": "St. Stephen's Green South", "banking": 1, "bike_stands": 30, "bonus": 0, "contract_name": "dublin", "name": "ST. STEPHEN'S GREEN SOUTH", "number": 37, "position_lat": 53.3375, "position_lng": -6.26199, "status": "OPEN"}, {"address": "Talbot Street", "banking": 0, "bike_stands": 40, "bonus": 0, "contract_name": "dublin", "name": "TALBOT STREET", "number": 38, "position_lat": 53.351, "position_lng": -6.25294, "status": "OPEN"}, {"address": "Wilton Terrace", "banking": 0, "bike_stands": 20, "bonus": 0, "contract_name": "dublin", "name": "WILTON TERRACE", "number": 39, "position_lat": 53.3324, "position_lng": -6.25272, "status": "OPEN"}, {"address": "Jervis Street", "banking": 0, "bike_stands": 21, "bonus": 0, "contract_name": "dublin", "name": "JERVIS STREET", "number": 40, "position_lat": 53.3483, "position_lng": -6.26665, "status": "OPEN"}, {"address": "Harcourt Terrace", "banking": 0, "bike_stands": 20, "bonus": 0, "contract_name": "dublin", "name": "HARCOURT TERRACE", "number": 41, "position_lat": 53.3328, "position_lng": -6.25794, "status": "OPEN"}, {"address": "Smithfield North", "banking": 0, "bike_stands": 30, "bonus": 0, "contract_name": "dublin", "name": "SMITHFIELD NORTH", "number": 42, "position_lat": 53.3496, "position_lng": -6.2782, "status": "OPEN"}, {"address": "Portobello Road", "banking": 0, "bike_stands": 30, "bonus": 0, "contract_name": "dublin", "name": "PORTOBELLO ROAD", "number": 43, "position_lat": 53.3301, "position_lng": -6.26804, "status": "OPEN"}, {"address": "Upper Sherrard Street", "banking": 0, "bike_stands": 30, "bonus": 0, "contract_name": "dublin", "name": "UPPER SHERRARD STREET", "number": 44, "position_lat": 53.3584, "position_lng": -6.26064, "status": "OPEN"}, {"address": "Deverell Place", "banking": 0, "bike_stands": 30, "bonus": 0, "contract_name": "dublin", "name": "DEVERELL PLACE", "number": 45, "position_lat": 53.3515, "position_lng": -6.25527, "status": "OPEN"}, {"address": "Herbert Street", "banking": 0, "bike_stands": 40, "bonus": 0, "contract_name": "dublin", "name": "HERBERT STREET", "number": 47, "position_lat": 53.3357, "position_lng": -6.24551, "status": "OPEN"}, {"address": "Excise Walk", "banking": 0, "bike_stands": 40, "bonus": 0, "contract_name": "dublin", "name": "EXCISE WALK", "number": 48, "position_lat": 53.3478, "position_lng": -6.24424, "status": "OPEN"}, {"address": "Guild Street", "banking": 0, "bike_stands": 40, "bonus": 0, "contract_name": "dublin", "name": "GUILD STREET", "number": 49, "position_lat": 53.3479, "position_lng": -6.24093, "status": "OPEN"}, {"address": "George's Lane", "banking": 0, "bike_stands": 40, "bonus": 0, "contract_name": "dublin", "name": "GEORGES LANE", "number": 50, "position_lat": 53.3502, "position_lng": -6.2797, "status": "OPEN"}, {"address": "York Street West", "banking": 0, "bike_stands": 40, "bonus": 0, "contract_name": "dublin", "name": "YORK STREET WEST", "number": 51, "position_lat": 53.3393, "position_lng": -6.2647, "status": "OPEN"}, {"address": "York Street East", "banking": 0, "bike_stands": 32, "bonus": 0, "contract_name": "dublin", "name": "YORK STREET EAST", "number": 52, "position_lat": 53.3388, "position_lng": -6.262, "status": "OPEN"}, {"address": "Newman House", "banking": 0, "bike_stands": 40, "bonus": 0, "contract_name": "dublin", "name": "NEWMAN HOUSE", "number": 53, "position_lat": 53.3371, "position_lng": -6.26059, "status": "OPEN"}, {"address": "Clonmel Street", "banking": 0, "bike_stands": 33, "bonus": 0, "contract_name": "dublin", "name": "CLONMEL STREET", "number": 54, "position_lat": 53.336, "position_lng": -6.26298, "status": "OPEN"}, {"address": "Hatch Street", "banking": 0, "bike_stands": 36, "bonus": 0, "contract_name": "dublin", "name": "HATCH STREET", "number": 55, "position_lat": 53.334, "position_lng": -6.26071, "status": "OPEN"}, {"address": "Mount Street Lower", "banking": 0, "bike_stands": 40, "bonus": 0, "contract_name": "dublin", "name": "MOUNT STREET LOWER", "number": 56, "position_lat": 53.338, "position_lng": -6.24153, "status": "OPEN"}, {"address": "Grattan Street", "banking": 0, "bike_stands": 23, "bonus": 0, "contract_name": "dublin", "name": "GRATTAN STREET", "number": 57, "position_lat": 53.3396, "position_lng": -6.24378, "status": "OPEN"}, {"address": "Sir Patrick's Dun", "banking": 0, "bike_stands": 40, "bonus": 0, "contract_name": "dublin", "name": "SIR PATRICK DUN'S", "number": 58, "position_lat": 53.3392, "position_lng": -6.24064, "status": "OPEN"}, {"address": "Denmark Street Great", "banking": 0, "bike_stands": 20, "bonus": 0, "contract_name": "dublin", "name": "DENMARK STREET GREAT", "number": 59, "position_lat": 53.3556, "position_lng": -6.2614, "status": "OPEN"}, {"address": "North Circular Road", "banking": 0, "bike_stands": 30, "bonus": 0, "contract_name": "dublin", "name": "NORTH CIRCULAR ROAD", "number": 60, "position_lat": 53.3596, "position_lng": -6.26035, "status": "OPEN"}, {"address": "Hardwicke Place", "banking": 0, "bike_stands": 25, "bonus": 0, "contract_name": "dublin", "name": "HARDWICKE PLACE", "number": 61, "position_lat": 53.357, "position_lng": -6.26323, "status": "OPEN"}, {"address": "Lime Street", "banking": 0, "bike_stands": 40, "bonus": 0, "contract_name": "dublin", "name": "LIME STREET", "number": 62, "position_lat": 53.346, "position_lng": -6.24358, "status": "OPEN"}, {"address": "Fenian Street", "banking": 0, "bike_stands": 35, "bonus": 0, "contract_name": "dublin", "name": "FENIAN STREET", "number": 63, "position_lat": 53.3414, "position_lng": -6.24672, "status": "OPEN"}, {"address": "Sandwith Street", "banking": 0, "bike_stands": 40, "bonus": 0, "contract_name": "dublin", "name": "SANDWITH STREET", "number": 64, "position_lat": 53.3452, "position_lng": -6.24716, "status": "OPEN"}, {"address": "Convention Centre", "banking": 1, "bike_stands": 40, "bonus": 0, "contract_name": "dublin", "name": "CONVENTION CENTRE", "number": 65, "position_lat": 53.3474, "position_lng": -6.23852, "status": "OPEN"}, {"address": "New Central Bank", "banking": 0, "bike_stands": 40, "bonus": 0, "contract_name": "dublin", "name": "NEW CENTRAL BANK", "number": 66, "position_lat": 53.3471, "position_lng": -6.23475, "status": "OPEN"}, {"address": "The Point", "banking": 0, "bike_stands": 40, "bonus": 0, "contract_name": "dublin", "name": "THE POINT", "number": 67, "position_lat": 53.3469, "position_lng": -6.23085, "status": "OPEN"}, {"address": "Hanover Quay", "banking": 0, "bike_stands": 40, "bonus": 0, "contract_name": "dublin", "name": "HANOVER QUAY", "number": 68, "position_lat": 53.3441, "position_lng": -6.23715, "status": "OPEN"}, {"address": "Grand Canal Dock", "banking": 0, "bike_stands": 40, "bonus": 0, "contract_name": "dublin", "name": "GRAND CANAL DOCK", "number": 69, "position_lat": 53.3426, "position_lng": -6.2387, "status": "OPEN"}, {"address": "Kevin Street", "banking": 0, "bike_stands": 40, "bonus": 0, "contract_name": "dublin", "name": "KEVIN STREET", "number": 71, "position_lat": 53.3378, "position_lng": -6.2677, "status": "OPEN"}, {"address": "John Street West", "banking": 0, "bike_stands": 31, "bonus": 0, "contract_name": "dublin", "name": "JOHN STREET WEST", "number": 72, "position_lat": 53.3431, "position_lng": -6.27717, "status": "OPEN"}, {"address": "Francis Street", "banking": 0, "bike_stands": 30, "bonus": 0, "contract_name": "dublin", "name": "FRANCIS STREET", "number": 73, "position_lat": 53.3421, "position_lng": -6.27523, "status": "OPEN"}, {"address": "Oliver Bond Street", "banking": 0, "bike_stands": 30, "bonus": 0, "contract_name": "dublin", "name": "OLIVER BOND STREET", "number": 74, "position_lat": 53.3439, "position_lng": -6.28053, "status": "OPEN"}, {"address": "James Street", "banking": 0, "bike_stands": 40, "bonus": 0, "contract_name": "dublin", "name": "JAMES STREET", "number": 75, "position_lat": 53.3435, "position_lng": -6.28741, "status": "OPEN"}, {"address": "Market Street South", "banking": 0, "bike_stands": 38, "bonus": 0, "contract_name": "dublin", "name": "MARKET STREET SOUTH", "number": 76, "position_lat": 53.3423, "position_lng": -6.28766, "status": "OPEN"}, {"address": "Wolfe Tone Street", "banking": 0, "bike_stands": 29, "bonus": 0, "contract_name": "dublin", "name": "WOLFE TONE STREET", "number": 77, "position_lat": 53.3489, "position_lng": -6.26746, "status": "OPEN"}, {"address": "Mater Hospital", "banking": 0, "bike_stands": 40, "bonus": 0, "contract_name": "dublin", "name": "MATER HOSPITAL", "number": 78, "position_lat": 53.36, "position_lng": -6.26483, "status": "OPEN"}, {"address": "Eccles Street East", "banking": 0, "bike_stands": 27, "bonus": 0, "contract_name": "dublin", "name": "ECCLES STREET EAST", "number": 79, "position_lat": 53.3581, "position_lng": -6.2656, "status": "OPEN"}, {"address": "St James Hospital (Luas)", "banking": 0, "bike_stands": 40, "bonus": 0, "contract_name": "dublin", "name": "ST JAMES HOSPITAL (LUAS)", "number": 80, "position_lat": 53.3414, "position_lng": -6.29295, "status": "OPEN"}, {"address": "Mount Brown", "banking": 0, "bike_stands": 22, "bonus": 0, "contract_name": "dublin", "name": "MOUNT BROWN", "number": 82, "position_lat": 53.3416, "position_lng": -6.29719, "status": "OPEN"}, {"address": "Emmet Road", "banking": 0, "bike_stands": 40, "bonus": 0, "contract_name": "dublin", "name": "EMMET ROAD", "number": 83, "position_lat": 53.3407, "position_lng": -6.30819, "status": "OPEN"}, {"address": "Brookfield Road", "banking": 0, "bike_stands": 30, "bonus": 0, "contract_name": "dublin", "name": "BROOKFIELD ROAD", "number": 84, "position_lat": 53.339, "position_lng": -6.30022, "status": "OPEN"}, {"address": "Rothe Abbey", "banking": 0, "bike_stands": 35, "bonus": 0, "contract_name": "dublin", "name": "ROTHE ABBEY", "number": 85, "position_lat": 53.3388, "position_lng": -6.30395, "status": "OPEN"}, {"address": "Parkgate Street", "banking": 0, "bike_stands": 38, "bonus": 0, "contract_name": "dublin", "name": "PARKGATE STREET", "number": 86, "position_lat": 53.348, "position_lng": -6.2918, "status": "OPEN"}, {"address": "Collins Barracks Museum", "banking": 0, "bike_stands": 38, "bonus": 0, "contract_name": "dublin", "name": "COLLINS BARRACKS MUSEUM", "number": 87, "position_lat": 53.3475, "position_lng": -6.28525, "status": "OPEN"}, {"address": "Blackhall Place", "banking": 0, "bike_stands": 30, "bonus": 0, "contract_name": "dublin", "name": "BLACKHALL PLACE", "number": 88, "position_lat": 53.3488, "position_lng": -6.28164, "status": "OPEN"}, {"address": "Fitzwilliam Square East", "banking": 0, "bike_stands": 40, "bonus": 0, "contract_name": "dublin", "name": "FITZWILLIAM SQUARE EAST", "number": 89, "position_lat": 53.3352, "position_lng": -6.2509, "status": "OPEN"}, {"address": "Benson Street", "banking": 0, "bike_stands": 40, "bonus": 0, "contract_name": "dublin", "name": "BENSON STREET", "number": 90, "position_lat": 53.3442, "position_lng": -6.23345, "status": "OPEN"}, {"address": "South Dock Road", "banking": 0, "bike_stands": 30, "bonus": 0, "contract_name": "dublin", "name": "SOUTH DOCK ROAD", "number": 91, "position_lat": 53.3418, "position_lng": -6.23129, "status": "OPEN"}, {"address": "Heuston Bridge (North)", "banking": 0, "bike_stands": 40, "bonus": 0, "contract_name": "dublin", "name": "HEUSTON BRIDGE (NORTH)", "number": 92, "position_lat": 53.3478, "position_lng": -6.29243, "status": "OPEN"}, {"address": "Heuston Station (Central)", "banking": 0, "bike_stands": 40, "bonus": 0, "contract_name": "dublin", "name": "HEUSTON STATION (CENTRAL)", "number": 93, "position_lat": 53.3466, "position_lng": -6.29692, "status": "OPEN"}, {"address": "Heuston Station (Car Park)", "banking": 0, "bike_stands": 40, "bonus": 0, "contract_name": "dublin", "name": "HEUSTON STATION (CAR PARK)", "number": 94, "position_lat": 53.347, "position_lng": -6.2978, "status": "OPEN"}, {"address": "Royal Hospital", "banking": 0, "bike_stands": 40, "bonus": 0, "contract_name": "dublin", "name": "ROYAL HOSPITAL", "number": 95, "position_lat": 53.3439, "position_lng": -6.29706, "status": "OPEN"}, {"address": "Kilmainham Lane", "banking": 0, "bike_stands": 30, "bonus": 0, "contract_name": "dublin", "name": "KILMAINHAM LANE", "number": 96, "position_lat": 53.3418, "position_lng": -6.30509, "status": "OPEN"}, {"address": "Kilmainham Gaol", "banking": 0, "bike_stands": 40, "bonus": 0, "contract_name": "dublin", "name": "KILMAINHAM GAOL", "number": 97, "position_lat": 53.3421, "position_lng": -6.31002, "status": "OPEN"}, {"address": "Frederick Street South", "banking": 0, "bike_stands": 40, "bonus": 0, "contract_name": "dublin", "name": "FREDERICK STREET SOUTH", "number": 98, "position_lat": 53.3415, "position_lng": -6.25685, "status": "OPEN"}, {"address": "City Quay", "banking": 0, "bike_stands": 30, "bonus": 0, "contract_name": "dublin", "name": "CITY QUAY", "number": 99, "position_lat": 53.3466, "position_lng": -6.24615, "status": "OPEN"}, {"address": "Heuston Bridge (South)", "banking": 0, "bike_stands": 25, "bonus": 0, "contract_name": "dublin", "name": "HEUSTON BRIDGE (SOUTH)", "number": 100, "position_lat": 53.3471, "position_lng": -6.29204, "status": "OPEN"}, {"address": "King Street North", "banking": 0, "bike_stands": 30, "bonus": 0, "contract_name": "dublin", "name": "KING STREET NORTH", "number": 101, "position_lat": 53.3503, "position_lng": -6.27351, "status": "OPEN"}, {"address": "Western Way", "banking": 0, "bike_stands": 40, "bonus": 0, "contract_name": "dublin", "name": "WESTERN WAY", "number": 102, "position_lat": 53.3549, "position_lng": -6.26942, "status": "OPEN"}, {"address": "Grangegorman Lower (South)", "banking": 0, "bike_stands": 40, "bonus": 0, "contract_name": "dublin", "name": "GRANGEGORMAN LOWER (SOUTH)", "number": 103, "position_lat": 53.3547, "position_lng": -6.27868, "status": "OPEN"}, {"address": "Grangegorman Lower (Central)", "banking": 0, "bike_stands": 40, "bonus": 0, "contract_name": "dublin", "name": "GRANGEGORMAN LOWER (CENTRAL)", "number": 104, "position_lat": 53.3552, "position_lng": -6.27842, "status": "OPEN"}, {"address": "Grangegorman Lower (North)", "banking": 0, "bike_stands": 36, "bonus": 0, "contract_name": "dublin", "name": "GRANGEGORMAN LOWER (NORTH)", "number": 105, "position_lat": 53.356, "position_lng": -6.27838, "status": "OPEN"}, {"address": "Rathdown Road", "banking": 0, "bike_stands": 40, "bonus": 0, "contract_name": "dublin", "name": "RATHDOWN ROAD", "number": 106, "position_lat": 53.3589, "position_lng": -6.28034, "status": "OPEN"}, {"address": "Charleville Road", "banking": 0, "bike_stands": 40, "bonus": 0, "contract_name": "dublin", "name": "CHARLEVILLE ROAD", "number": 107, "position_lat": 53.3592, "position_lng": -6.28187, "status": "OPEN"}, {"address": "Avondale Road", "banking": 0, "bike_stands": 35, "bonus": 0, "contract_name": "dublin", "name": "AVONDALE ROAD", "number": 108, "position_lat": 53.3594, "position_lng": -6.27614, "status": "OPEN"}, {"address": "Buckingham Street Lower", "banking": 0, "bike_stands": 29, "bonus": 0, "contract_name": "dublin", "name": "BUCKINGHAM STREET LOWER", "number": 109, "position_lat": 53.3533, "position_lng": -6.24932, "status": "OPEN"}, {"address": "Phibsborough Road", "banking": 0, "bike_stands": 40, "bonus": 0, "contract_name": "dublin", "name": "PHIBSBOROUGH ROAD", "number": 110, "position_lat": 53.3563, "position_lng": -6.27372, "status": "OPEN"}, {"address": "Mountjoy Square East", "banking": 0, "bike_stands": 40, "bonus": 0, "contract_name": "dublin", "name": "MOUNTJOY SQUARE EAST", "number": 111, "position_lat": 53.3567, "position_lng": -6.25636, "status": "OPEN"}, {"address": "North Circular Road (O'Connell's)", "banking": 0, "bike_stands": 30, "bonus": 0, "contract_name": "dublin", "name": "NORTH CIRCULAR ROAD (O'CONNELL'S)", "number": 112, "position_lat": 53.3578, "position_lng": -6.25156, "status": "OPEN"}, {"address": "Merrion Square South", "banking": 0, "bike_stands": 40, "bonus": 0, "contract_name": "dublin", "name": "MERRION SQUARE SOUTH", "number": 113, "position_lat": 53.3386, "position_lng": -6.24861, "status": "OPEN"}, {"address": "Wilton Terrace (Park)", "banking": 0, "bike_stands": 40, "bonus": 0, "contract_name": "dublin", "name": "WILTON TERRACE (PARK)", "number": 114, "position_lat": 53.3337, "position_lng": -6.24834, "status": "OPEN"}, {"address": "Killarney Street", "banking": 0, "bike_stands": 30, "bonus": 0, "contract_name": "dublin", "name": "KILLARNEY STREET", "number": 115, "position_lat": 53.3548, "position_lng": -6.24758, "status": "OPEN"}, {"address": "Broadstone", "banking": 0, "bike_stands": 30, "bonus": 0, "contract_name": "dublin", "name": "BROADSTONE", "number": 116, "position_lat": 53.3547, "position_lng": -6.27231, "status": "OPEN"}, {"address": "Hanover Quay East", "banking": 0, "bike_stands": 40, "bonus": 0, "contract_name": "dublin", "name": "HANOVER QUAY EAST", "number": 117, "position_lat": 53.3437, "position_lng": -6.23175, "status": "OPEN"}]